[
  {
    "id": "ChIJe2jzzLfP5zsRqUf0gRme7_w",
    "name": "Namaste by Multibro Restaurant",
    "address": "SVS Rd, next to wimpy wine shop, Dadar West, Prabhadevi, Mumbai",
    "lat": 19.0151243,
    "lng": 72.8271747
  },
  {
    "id": "ChIJJYI0Y3LJ5zsRYanhw9sYkxw",
    "name": "Makhdoom-E-Khaas Restaurant",
    "address": "Dargah, Pathan Cottage, Shop No 1,GRD Floor, Plot No 72/74, SVS Rd, Mahim West, Mahim, Mumbai",
    "lat": 19.0398947,
    "lng": 72.8393163
  },
  {
    "id": "ChIJU098MujP5zsRMg5F7CffcwU",
    "name": "Parel Food Corner Family Restaurant",
    "address": "12 to 16 Iqbal mansion, Dr Baba Saheb Ambedkar Rd, near premire cinema, Mumbai",
    "lat": 19.0102049,
    "lng": 72.8426673
  },
  {
    "id": "ChIJO9Oj9cnP5zsRlPay0MbCVNI",
    "name": "La Lola",
    "address": "Kamala Mills Compound, 3rd Floor, Trade View Building, Oasis City Complex, Lower Parel, Mumbai",
    "lat": 19.0058969,
    "lng": 72.8266294
  },
  {
    "id": "ChIJH3JVvOjI5zsR09Kln2Nw9TQ",
    "name": "Spice House",
    "address": "GUJRANI INTERNATIONAL, G Block BKC, Bandra Kurla Complex, Bandra East, Mumbai",
    "lat": 19.0654727,
    "lng": 72.8641026
  },
  {
    "id": "ChIJf3bw-efI5zsRtdR6zgH_FnQ",
    "name": "Yauatcha Mumbai",
    "address": "Raheja Tower, Bandra Kurla Complex, Bandra East, Mumbai",
    "lat": 19.0609124,
    "lng": 72.8629578
  },
  {
    "id": "ChIJ784XcT7J5zsR0orAAtxkeP8",
    "name": "Imbiss Meating Joint",
    "address": "Ben O Lil Haven, Shop 5, 14, Waroda Rd, opp. Bob Tailor, Bandra West, Mumbai",
    "lat": 19.053981,
    "lng": 72.8297753
  },
  {
    "id": "ChIJHbXkX4zJ5zsRxK-C6bm_6_I",
    "name": "Closed",
    "address": "Shop No. 5, 31st Road, Linking Rd, Bandra West, Mumbai",
    "lat": 19.061056,
    "lng": 72.8359068
  },
  {
    "id": "ChIJf_VoHy7J5zsRfwz37TrdQeQ",
    "name": "Junction Restaurant",
    "address": "Junction, Old Cadell Rd, The Mahim Makarand CHS, Mahim West, Mahim, Mumbai",
    "lat": 19.0426469,
    "lng": 72.83999709999999
  },
  {
    "id": "ChIJdWQimw_P5zsRwtus0E2uimQ",
    "name": "Snacks Fusion Café (Veg Restaurant)",
    "address": "Shop No 8, Parekh Building, Sayani Rd, opp. ST Depot, opp. Parel, Lokmanya Nagar, Dadar West, Parel, Mumbai",
    "lat": 19.0105796,
    "lng": 72.8324943
  },
  {
    "id": "ChIJy5PJDkXJ5zsRXIu3f-O9ups",
    "name": "Masala Bay",
    "address": "Bandstand, Taj Lands End, BJ Road, Vidyavihar Society, Bandra West, Mumbai",
    "lat": 19.0435958,
    "lng": 72.8195155
  },
  {
    "id": "ChIJ3SHGfi_J5zsRx7vR6hO6mqA",
    "name": "Boyfriend Restaurant",
    "address": "Roopmahal bldg (A), Shop num 2, 5th road, next to khar socials, Khar West, Mumbai",
    "lat": 19.0683797,
    "lng": 72.83805149999999
  },
  {
    "id": "ChIJ8124fBbJ5zsReQibs5i3t5c",
    "name": "Hakkasan Mumbai",
    "address": "2nd Floor, Krystal Building, Waterfield Road, Bandra West, Mumbai",
    "lat": 19.0608636,
    "lng": 72.834589
  },
  {
    "id": "ChIJVUOesI_O5zsRvAx4k3zhOvY",
    "name": "San:Qi",
    "address": "136, Dr Elijah Moses Rd, Gandhi Nagar, Upper Worli, Worli, Mumbai",
    "lat": 18.9942981,
    "lng": 72.82031479999999
  },
  {
    "id": "ChIJSWdro8DO5zsRcOlt_hgeZyQ",
    "name": "Ashok Restaurant",
    "address": "Kadri Mansion Swami Vivekanand Marg opp. Prabhadevi, Sion, Mumbai",
    "lat": 19.0160192,
    "lng": 72.8285425
  },
  {
    "id": "ChIJ76H1gz_J5zsR-vq1_venRZk",
    "name": "Mamagoto",
    "address": "133, Ground Gazebo House, Hill Rd, Bandra West, Mumbai",
    "lat": 19.0550692,
    "lng": 72.82840089999999
  },
  {
    "id": "ChIJ22fh7_DO5zsRz2a6BCrtCII",
    "name": "Sarovar Restaurant And Bar",
    "address": "Parel East, Parel, Mumbai",
    "lat": 18.9972344,
    "lng": 72.8377005
  },
  {
    "id": "ChIJcdbGkijP5zsRaJ0hsZvAlHo",
    "name": "Ahar Restaurant",
    "address": "Maneklal Mansion, Kings Circle, Maheshwari Udyan, Dr Baba Saheb Ambedkar Road, Matunga East, Mumbai",
    "lat": 19.0274219,
    "lng": 72.8562879
  },
  {
    "id": "ChIJMWP94-HP5zsRnHv-UWoO8mI",
    "name": "Golden Empire Restaurant",
    "address": "Shop no 4, Mariam Chawl, G.K.Marg, opp. A to Z Industries, Lower Parel West, Lower Parel, Mumbai",
    "lat": 19.000258,
    "lng": 72.8238143
  },
  {
    "id": "ChIJjcC5dozO5zsRHkFGr0xsfD0",
    "name": "By The Mekong",
    "address": "Level 37, 462, Senapati Bapat Marg, Lower Parel, Mumbai",
    "lat": 18.9948789,
    "lng": 72.8255042
  },
  {
    "id": "ChIJ2RdH8orO5zsR9j_YJgVbG64",
    "name": "Masque",
    "address": "Masque, Unit G3, Shree Laxmi Woollen Mills, Shakti Mills Lane, Off, Dr Elijah Moses Rd, Mahalakshmi, Mumbai",
    "lat": 18.9898258,
    "lng": 72.8256177
  },
  {
    "id": "ChIJN70na7vJ5zsRqVDMtPfB1bs",
    "name": "Punjab Grill - The Capital",
    "address": "G5, The Capital, G Block Rd, G Block BKC, Bandra Kurla Complex, Bandra East, Mumbai",
    "lat": 19.0632607,
    "lng": 72.8624502
  },
  {
    "id": "ChIJ43ajvhPJ5zsRj-Y3Pv5YK7I",
    "name": "Apsara Restaurant",
    "address": "Kamal Kunj CHS, 417, Building, 33rd Rd, Bandra West, Mumbai",
    "lat": 19.0653419,
    "lng": 72.8320267
  },
  {
    "id": "ChIJVXS1nyHJ5zsReedmq5eyBQM",
    "name": "Jai Hind Lunch Home Bandra East",
    "address": "44, Road Number 1, Samadhan Cooperative Housing Society, Gandhi Nagar, Bandra East, Mumbai",
    "lat": 19.0561802,
    "lng": 72.8469575
  },
  {
    "id": "ChIJ6___P87O5zsRBkncH9IxMdU",
    "name": "Terttulia Eat Drink Love",
    "address": "Ground Floor, Hotel Parkway, Sea Face, Off, Old Cadell Rd, near Shivaji Park, Dadar West, Mumbai",
    "lat": 19.0256304,
    "lng": 72.8352324
  },
  {
    "id": "ChIJvWfTv0HP5zsRV2LINcbUbk0",
    "name": "Foo Phoenix Palladium",
    "address": "1st Floor, Festival Square, High Street Phoenix, Lower Parel, Mumbai",
    "lat": 18.9947348,
    "lng": 72.8245215
  },
  {
    "id": "ChIJB05GWZHJ5zsRepsZHVtpC08",
    "name": "SEEFAH RESTAURANT",
    "address": "2 Floor, Khan House, Hill Rd, above McDonald's, Bandra West, Mumbai",
    "lat": 19.0545244,
    "lng": 72.8281767
  },
  {
    "id": "ChIJQWwGAqDP5zsRNSQ7iar0lfY",
    "name": "Townhall Restaurant",
    "address": "World Crest, Unit no.1A & 1B, Lodha, Senapati Bapat Marg, Upper Worli, Lower Parel, Mumbai",
    "lat": 19.0023187,
    "lng": 72.8274995
  },
  {
    "id": "ChIJ7YjclZbP5zsRu9uknBXa2wY",
    "name": "Rasoi Kitchen & Bar",
    "address": "Ramee Guestline Hotel Opp. Swaminarayan Temple, next to Kohinoor Hall, Dadar East",
    "lat": 19.0171903,
    "lng": 72.8440895
  },
  {
    "id": "ChIJe2U4L-zI5zsRa6ovuoq6yM0",
    "name": "Masala Library by Jiggs Kalra",
    "address": "First International Financial Center, Ground Floor, Bandra Kurla Complex Rd, Bandra Kurla Complex, Bandra East, Mumbai",
    "lat": 19.0692504,
    "lng": 72.869751
  },
  {
    "id": "ChIJibi_T1W25zsR-dM1q3g3TK8",
    "name": "Lucky Restaurant",
    "address": "9, Hill Road, SV Rd, Bandra West, Mumbai",
    "lat": 19.053872,
    "lng": 72.8377338
  },
  {
    "id": "ChIJVaTmhy3P5zsRDBVcY4UnQpA",
    "name": "Hardeep Punjab (Sion Koliwada)",
    "address": "Om Shiv Shakti, GTB Nagar JK Bhasin Marg, Sion Koliwada, opposite Building No.1, G.T.B.Nagar, Sector V, Sion East, Antop Hill, Mumbai",
    "lat": 19.0341486,
    "lng": 72.8631592
  },
  {
    "id": "ChIJD_nnLLfP5zsR-u7LcgmZQQ0",
    "name": "Giggle and gril fast food",
    "address": "Shop no10,shilp tower,junction of P.B marg, NM Joshi Marg, Lower Parel, Mumbai",
    "lat": 19.0063382,
    "lng": 72.8306786
  },
  {
    "id": "ChIJW0Rc06zP5zsR_KLayxdWnHg",
    "name": "Amar Fast Food Restaurant",
    "address": "1A,33,Vivekanand Mainson,B.J.Deorukhkar Marg, Naigaon, Dadar East, Mumbai",
    "lat": 19.0109443,
    "lng": 72.8431384
  },
  {
    "id": "ChIJJZtuwMLI5zsRk_0tJsmMcKA",
    "name": "Toast & Tonic",
    "address": "Ground Jet Airways-Godrej Building Unit 1, G Block BKC, Bandra East, Mumbai",
    "lat": 19.0593198,
    "lng": 72.864856
  },
  {
    "id": "ChIJf4AdEYLP5zsRO-bs6BFaz1g",
    "name": "Sun and Moon Korean Restaurant",
    "address": "First floor, Sun Moon Korean restaurant, Dainik shivner Marg near municipal industrial Estate opp lady ratan tower, Mumbai",
    "lat": 18.9928712,
    "lng": 72.82221849999999
  },
  {
    "id": "ChIJh-6qXL7O5zsREZOycGALx80",
    "name": "Camp Restaurant",
    "address": "1, JB Temkar Marg, Adarsh Nagar, Worli, Mumbai",
    "lat": 19.0132337,
    "lng": 72.823917
  },
  {
    "id": "ChIJ-RZR_tDI5zsRZV7HAMRyNsw",
    "name": "Manoj Restaurant",
    "address": "Sangam Gali, 90 Feet Road, Dharavi, Mumbai",
    "lat": 19.0462229,
    "lng": 72.8601716
  },
  {
    "id": "ChIJwxDY1OzO5zsRC72eDjher0s",
    "name": "KOKO",
    "address": "C Wing, Trade World, Kamala Mills Compound, Ground Floor, Lower Parel, Mumbai",
    "lat": 19.0029776,
    "lng": 72.8280616
  },
  {
    "id": "ChIJP3-3py3J5zsR21FSOxj3Fa4",
    "name": "Paramount Restaurant",
    "address": "Isa Ali Building, Shop No. 62, Lady Jamshedji Rd, Mahim, Mumbai",
    "lat": 19.0387734,
    "lng": 72.8417664
  },
  {
    "id": "ChIJUdMnQOLJ5zsRhIy1Z-h9w7M",
    "name": "The Harbour Bay- Seafood Kitchen and Bar",
    "address": "003, Ankleshwar, NItyanand Rd ONGC Colony, Reclamation, Bandra West, W",
    "lat": 19.0490541,
    "lng": 72.82870249999999
  },
  {
    "id": "ChIJd1WwxxTJ5zsR-BdTOID2aX4",
    "name": "Papa Pancho da Dhaba",
    "address": "Shop No. 12, Gasper Enclave, Pali Naka, St John St, Opp. Gold's Gym, Bandra West, Mumbai",
    "lat": 19.0616924,
    "lng": 72.8291875
  },
  {
    "id": "ChIJF0vhF4nP5zsRAnXCKscGM20",
    "name": "Sarangaa Restaurant",
    "address": "Yadav Patil Ln, Prabhadevi, Mumbai",
    "lat": 19.0185316,
    "lng": 72.8304567
  },
  {
    "id": "ChIJ9UGZ5RLJ5zsRQuwI1lTjzoY",
    "name": "Veranda",
    "address": "331, Doctor BR Ambedkar Road, Pali Hill, Bandra West, Mumbai",
    "lat": 19.0667895,
    "lng": 72.83028329999999
  },
  {
    "id": "ChIJH8v2rpTO5zsRHqm2euAkNGw",
    "name": "Diablo Mumbai",
    "address": "Pandurang Budhkar Marg, Worli, Mumbai",
    "lat": 19.0061341,
    "lng": 72.8274333
  },
  {
    "id": "ChIJu3gOQyTJ5zsRTwn7bZJgqLk",
    "name": "Arbab",
    "address": "Plot no 117, Shop, no 4, 28th Rd, Bandra West, Mumbai",
    "lat": 19.0599228,
    "lng": 72.8341547
  },
  {
    "id": "ChIJmaVf3D3J5zsRunDxXYOoqnM",
    "name": "Barbeque Nation - Bandra",
    "address": "Ground Floor, 355, Hotel Metro Palace, Hill Rd, opposite Marks and Spencer, Bandra West, Mumbai",
    "lat": 19.0561673,
    "lng": 72.8343374
  },
  {
    "id": "ChIJKdViMzzJ5zsRvQls4vYSOls",
    "name": "THE THA'L CO",
    "address": "lane, Chinchpokli Rd, opp. Yoko Sizzlers, Santosh Nagar, Bandra West, Mumbai",
    "lat": 19.0549338,
    "lng": 72.8349436
  },
  {
    "id": "ChIJ43hAl5TO5zsRpom7RZLg7vY",
    "name": "Oye Kake",
    "address": "Restaurant 2 & 3 First Floor, Bombay Hub Z - Wing Kamala City, Senapati Bapat Marg, Lower Parel, Mumbai",
    "lat": 19.0025397,
    "lng": 72.82934949999999
  },
  {
    "id": "ChIJOw3N08DO5zsRMo0aHIXNnnQ",
    "name": "Shree Siddhivinayak Refreshments",
    "address": "Next to Siddhivinayak Temple, SVS Rd, Siddhivinayak Society, Prabhadevi, Mumbai",
    "lat": 19.0171043,
    "lng": 72.8305417
  },
  {
    "id": "ChIJtf38uhPJ5zsR__cN3Usa_EY",
    "name": "Mini Punjab's Bandra",
    "address": "Jn. of 16th & 33rd, TPS Rd, Bandra West, W",
    "lat": 19.0653947,
    "lng": 72.83110429999999
  },
  {
    "id": "ChIJQZlPNI3O5zsRwGX0xjaxEiI",
    "name": "Ambience Bar & Kitchen",
    "address": "162/D, Jagdamba Bhavan, Senapati Bapat Marg, opposite Kotak Mahindra Bank, Parel, Mumbai",
    "lat": 18.9984635,
    "lng": 72.8277982
  },
  {
    "id": "ChIJ4_VJNw7J5zsRPGAZWCoFLOc",
    "name": "Soul Restaurant & Bar",
    "address": "Oriental Residency Hotel, Khar West",
    "lat": 19.0676763,
    "lng": 72.83628139999999
  },
  {
    "id": "ChIJT4tuyebJ5zsRDTr26II1KT4",
    "name": "Cafe Milan Restaurant",
    "address": "MS/RB-T46, Lal Bahadur Shastri Rd, Mahanagar Palika Vasahat, Dharavi, Mumbai",
    "lat": 19.0479779,
    "lng": 72.8633964
  },
  {
    "id": "ChIJ_Yt1Su_O5zsRatUSiqswLh4",
    "name": "Good luck",
    "address": "Gautam Nagar, Parel, Mumbai",
    "lat": 19.0062912,
    "lng": 72.8401926
  },
  {
    "id": "ChIJWaz6YxHJ5zsRO7yesieSi_M",
    "name": "Persian Darbar",
    "address": "Moray Mahal, Linking Rd, Bandra West, Mumbai",
    "lat": 19.0604513,
    "lng": 72.8365847
  },
  {
    "id": "ChIJtf38uhPJ5zsRCthW4tBJA7M",
    "name": "Khane Khas",
    "address": "Shop No. 4, Ground Floor, Silver Croft, T.P.S. 3, Junction Of 16th & 33rd Road, Bandra West, Mumbai",
    "lat": 19.065558,
    "lng": 72.8308904
  },
  {
    "id": "ChIJJ1-wMT3J5zsR1zduh3ALcQY",
    "name": "National Restaurant",
    "address": "21-A, Turner Rd, near Sahakari Bhandar, Patkar Blocks, Bandra West, Mumbai",
    "lat": 19.0565257,
    "lng": 72.8391445
  },
  {
    "id": "ChIJ6Sx65SjP5zsRJlgEim0WDbE",
    "name": "New Punjab Restaurant & Bar",
    "address": "King Circle, Bhaudaji Rd, Matunga, Mumbai",
    "lat": 19.0276306,
    "lng": 72.8553877
  },
  {
    "id": "ChIJGbetBSzP5zsRHcj45o3NdHk",
    "name": "Amrut Restaurant and Bar",
    "address": "Opp Gandhi Market, Dr Baba Saheb Ambedkar Rd, Sion, Mumbai",
    "lat": 19.0321278,
    "lng": 72.8583311
  },
  {
    "id": "ChIJoRmvzaLJ5zsRlRHynB_Nl3o",
    "name": "Maharaj Ji",
    "address": "Datta Mandir Rd, near Datta Temple, Vakola, Santacruz East, Mumbai",
    "lat": 19.0834824,
    "lng": 72.852564
  },
  {
    "id": "ChIJe6g67tPJ5zsRavAHatTcTgM",
    "name": "The Bandra Restaurant",
    "address": "114, Fatema Cottage, D Monte St, near National Bakery, Bandra West, W",
    "lat": 19.0540458,
    "lng": 72.8316297
  },
  {
    "id": "ChIJc1IEFBTJ5zsR3TcK5INEfSQ",
    "name": "Eat Around the Corner",
    "address": "24th, High School, Junction of, &, 30th Rd, opp. St. Theresa's Boys, TPS III, Bandra West, Mumbai",
    "lat": 19.0624154,
    "lng": 72.83267959999999
  },
  {
    "id": "ChIJfWaj7AfJ5zsRGH6AnOnA1kU",
    "name": "Tequila Sunrise Multi-Cuisine Family Bar",
    "address": "Ardeshir Mansion, 41, Santa Cruz Station Rd, Santacruz West, Mumbai",
    "lat": 19.0805596,
    "lng": 72.8411216
  },
  {
    "id": "ChIJw3mbtBbJ5zsRT17EG5B3hjo",
    "name": "Bastian, Bandra",
    "address": "Kamal Building, B/1, New, Linking Rd, next to Burger King, Bandra West, Mumbai",
    "lat": 19.0634363,
    "lng": 72.835077
  },
  {
    "id": "ChIJFwpGN-nI5zsRCtJK7z-gTvQ",
    "name": "O22",
    "address": "Trident, 1st floor, C-56, G Block BKC, Bandra Kurla Complex, Mumbai",
    "lat": 19.0662266,
    "lng": 72.8675586
  },
  {
    "id": "ChIJB6qflRTJ5zsRmxqAPDeShvw",
    "name": "Pali Bhavan",
    "address": "10, Pali Mala Rd, Adarsh Nagar, Bandra West, Mumbai",
    "lat": 19.0621868,
    "lng": 72.8294102
  },
  {
    "id": "ChIJT9g-shbJ5zsRXa9USP5sej8",
    "name": "Khow Chow",
    "address": "Shop # 2 New Kamal CHS, 248, Waterfield Road, Bandra West, Mumbai",
    "lat": 19.0633313,
    "lng": 72.8346727
  },
  {
    "id": "ChIJ-ziNBl7P5zsR_UcX8BuW_g0",
    "name": "Trilok family restaurant & bar",
    "address": "308, Chandawarkar Marg, Matunga (C.R.), Matunga, Mumbai",
    "lat": 19.0275739,
    "lng": 72.8516264
  },
  {
    "id": "ChIJpx309RbJ5zsRMQAu74GIKIQ",
    "name": "Mantra Restaurant (Veg & Non-Veg)",
    "address": "Nerurkar Chawl, SV Rd, Opp. Reliance Mall, Santacruz West, Mumbai",
    "lat": 19.0885697,
    "lng": 72.8383097
  },
  {
    "id": "ChIJTVIgeL3J5zsRLlaJMV2iBgA",
    "name": "Aroma family restaurant & bar",
    "address": "8/9 basant bahar chs Opp sea princess hotel, Juhu Rd",
    "lat": 19.0924061,
    "lng": 72.8284559
  },
  {
    "id": "ChIJ3_4osRLJ5zsRBE0v_3VQeUU",
    "name": "Fat Kongg chinese Restaurant",
    "address": "Railway Station, Manjunath Nivas, Rd Number 3, opp. Amardeep Hotel, near by khar, Khar West, Mumbai",
    "lat": 19.0713272,
    "lng": 72.83968109999999
  },
  {
    "id": "ChIJAyEP0j7J5zsROi6qP8P5Yvs",
    "name": "Seeds Of Life- Bandra",
    "address": "Vora House, 30B, Pali Mala Rd, next to The Bagel Shop, Bandra West, Mumbai",
    "lat": 19.0631487,
    "lng": 72.8249262
  },
  {
    "id": "ChIJZcFhDU_J5zsRkuKUHYErMQk",
    "name": "Ming Yang",
    "address": "Byramji Jeejeebhoy Road, Bandstand Promenade, Bandra West, Mumbai",
    "lat": 19.0439087,
    "lng": 72.8196694
  },
  {
    "id": "ChIJ40Vtte7I5zsRcxQx9r2Wi94",
    "name": "Maya",
    "address": "First floor Trident C-56, G Block BKC, Bandra Kurla Complex, Mumbai",
    "lat": 19.0669995,
    "lng": 72.8684095
  },
  {
    "id": "ChIJyxxVLvnJ5zsRH62ExWGuMXE",
    "name": "BLUE’S KITCHEN",
    "address": "Shop No.1, Sai Pooja CHS, 16th Rd, Bandra West, Mumbai",
    "lat": 19.0658979,
    "lng": 72.83116919999999
  },
  {
    "id": "ChIJjdx-Nl-55zsRo3r0Cm5tMDo",
    "name": "Sea Corner",
    "address": "Khan Abdul Gaffar Khan Road, Worli Sea Face, Worli, Mumbai",
    "lat": 19.0162327,
    "lng": 72.8181013
  },
  {
    "id": "ChIJCWU-_QHJ5zsR291jn2ZRP6g",
    "name": "Fifty Five East",
    "address": "Grand Hyatt Mumbai Hotel and Residences Bandra Kurla Complex Vicinity, Off, Western Express Hwy, Santacruz East, Mumbai",
    "lat": 19.0777468,
    "lng": 72.85120549999999
  },
  {
    "id": "ChIJaVkaAALJ5zsRLUn8gLx-oZ8",
    "name": "Celini",
    "address": "Grand Hyatt Mumbai Hotel and Residences Bandra Kurla Complex Vicinity, Off, Western Express Hwy, Santacruz East, Mumbai",
    "lat": 19.0775846,
    "lng": 72.851184
  },
  {
    "id": "ChIJR2M9QEfJ5zsRF157QHCzAeo",
    "name": "The Nutcracker",
    "address": "St John Baptist Rd, St Sebastian Colony, Mount Mary, Bandra West, Mumbai",
    "lat": 19.0501278,
    "lng": 72.8263372
  },
  {
    "id": "ChIJe-gCeL3J5zsRRFqroQ_aUmc",
    "name": "Little Italy",
    "address": "Cooper School, 18B, Juhu Rd, Near Maneckji, Shivaji Nagr, Santacruz West, Mumbai",
    "lat": 19.0896354,
    "lng": 72.8277157
  },
  {
    "id": "ChIJK1Lp1d7O5zsRgXPspMBcQbU",
    "name": "Great Punjab Restaurant And Bar",
    "address": "Sharada Mansion, 186, Dr Baba Saheb Ambedkar Rd, Dadar East, Dadar, Mumbai",
    "lat": 19.0141697,
    "lng": 72.8447151
  },
  {
    "id": "ChIJp5jqNnLJ5zsRT4tYrKp13bM",
    "name": "Carter’s Blue Restaurant",
    "address": "Union Park, Pali Hill, Mumbai",
    "lat": 19.0705242,
    "lng": 72.8227043
  },
  {
    "id": "ChIJk2fZEAO35zsRIIfX7fTMAzE",
    "name": "Spice Burst Restaurant | Chinese Restaurant in Jogeshwari",
    "address": "Chs Ltd, Star Vaishali Apartment, Shop No. 7, B3-B4, Vaishali Nagar, Jogeshwari West, W",
    "lat": 19.1438446,
    "lng": 72.8445311
  },
  {
    "id": "ChIJLZ2ZEj-25zsRHk3UpMkFxuA",
    "name": "Quesso Bar Ristorante",
    "address": "Shop No 93 to 96, Above Shreejee's Veg Wonders, Link plaza, Link Rd Ext., Near oshivara Police stn, Andheri/ Oshiwara West, Mumbai",
    "lat": 19.148752,
    "lng": 72.8316253
  },
  {
    "id": "ChIJC3gGXSa25zsRdtrVHWJDuX4",
    "name": "Courtyard Family Restaurant And Bar",
    "address": "Veera Desai Rd, Azad Nagar 2, Mhada Colony, Azad Nagar, Andheri West, Mumbai",
    "lat": 19.1315241,
    "lng": 72.83737529999999
  },
  {
    "id": "ChIJ-8BjqFbI5zsR3cf3zWuHRqo",
    "name": "Grasshopper Restaurant",
    "address": "Rinkoo Apartment, Ground Floor, Vallabhbhai Patel Road, Vile Parle West, Mumbai",
    "lat": 19.0975189,
    "lng": 72.839933
  },
  {
    "id": "ChIJ2x7K4p7J5zsR-UZ3UwkJZBY",
    "name": "Chinese Corner Family Restaurant",
    "address": "Shop No 1,Ambewadi, RK Singh Marg, near Mira Building, Andheri East, Mumbai",
    "lat": 19.1283611,
    "lng": 72.85202919999999
  },
  {
    "id": "ChIJ51B8ZpXJ5zsRcPieNGsaUbM",
    "name": "Melting Pot",
    "address": "148 B, Ground Floor, Juhu Rd, Juhu, Mumbai",
    "lat": 19.1014192,
    "lng": 72.8274053
  },
  {
    "id": "ChIJOayaTXi35zsRxzrm0ohVJTg",
    "name": "THE PUBG RESTAURANT",
    "address": "188, the PUBG restaurant, 1505, Best Colony Rd, Sejal Park, Motilal Nagar I, Goregaon West, Mumbai",
    "lat": 19.1552567,
    "lng": 72.83698389999999
  },
  {
    "id": "ChIJHd-v9r635zsRGaFdiCe4RhY",
    "name": "BB HOUSE ( Hostel & Restaurant)",
    "address": "Bungalow no, C4, 3rd Cross Rd, Lokhandwala Complex, Andheri West, Mumbai",
    "lat": 19.1434148,
    "lng": 72.8223721
  },
  {
    "id": "ChIJfw0EJxHI5zsREdE3WL67aAE",
    "name": "Choice Restaurant | Best Restaurant In Andheri",
    "address": "Abu Asad Compound Marol Pipeline Road, Andheri (E, opp. Mukund Hospital, Andheri East, Mumbai",
    "lat": 19.1104945,
    "lng": 72.8720128
  },
  {
    "id": "ChIJN32TXCW25zsRAjutyxhWZGM",
    "name": "BYOB",
    "address": "A-17, Captain Suresh Samant Marg, Prathmesh Complex, Andheri West, Mumbai",
    "lat": 19.13772,
    "lng": 72.839109
  },
  {
    "id": "ChIJHR9lQO3O5zsRAmEMjZTMpKE",
    "name": "Gajalee restaurant",
    "address": "E3, Udyog Sadan No.2, MIDC, opposite ESIC Hospital, MIDC, Andheri East, Mumbai",
    "lat": 19.1174955,
    "lng": 72.8673108
  },
  {
    "id": "ChIJt-dmfRXI5zsRGJkw0nhSjBU",
    "name": "Jamavar - Indian Speciality Restaurant",
    "address": "Sahar Airport Rd, Mariyyman Nagar, Greater Indra Nagar, Andheri East, Mumbai",
    "lat": 19.1093078,
    "lng": 72.87382459999999
  },
  {
    "id": "ChIJ_bzFaP3J5zsR-qbV0v9Ds1c",
    "name": "Govinda's Restaurant",
    "address": "4, Dev Park Society, Sainath Nagar, MHADA Colony, Juhu, Mumbai",
    "lat": 19.1132626,
    "lng": 72.8269378
  },
  {
    "id": "ChIJ36NmkNHJ5zsRQ1G6Eoeiz1g",
    "name": "Cafe Savera Restaurant",
    "address": "Cafe savera, SH-2, Sukhmani Building, SV Rd, Shree Ram Nagar, Andheri West, Mumbai",
    "lat": 19.1185511,
    "lng": 72.8447276
  },
  {
    "id": "ChIJzby1-z7I5zsRvHYO_AJEZIg",
    "name": "Apna Dhaba Family Restaurant and Bar",
    "address": "318/41, Kakad Corner, Marol Pipeline, Andheri - Kurla Rd, Andheri East, Mumbai",
    "lat": 19.1115205,
    "lng": 72.87104579999999
  },
  {
    "id": "ChIJGbIYAVXJ5zsRKEnFD693QSE",
    "name": "Manuhaar (The Vegetarian Thali Restaurant)",
    "address": "Chhatrapati Shivaji International, Western Express Hwy, Navpada, Airport Area, Vile Parle, Mumbai",
    "lat": 19.0954633,
    "lng": 72.85361879999999
  },
  {
    "id": "ChIJL57RTwS25zsRj6Hy2uno8pM",
    "name": "Jamjar Diner Restaurant",
    "address": "7A & 7B, JP Rd, Aram Nagar Part 2, Versova, Andheri West, Mumbai",
    "lat": 19.1328817,
    "lng": 72.8122394
  },
  {
    "id": "ChIJQU6D3unJ5zsRKoV84BwZM9k",
    "name": "Fable Juhu",
    "address": "Aashiyana Apartment, Shop 3, N S Rd Number 13, Chand Society, Vithal Nagar, Juhu, Mumbai",
    "lat": 19.1110486,
    "lng": 72.82795329999999
  },
  {
    "id": "ChIJh_L4O-jJ5zsRo9sxBkCFKeE",
    "name": "Govinda's Restaurant",
    "address": "ISKCON Temple Hare Krishna Land, Juhu, Mumbai",
    "lat": 19.1132545,
    "lng": 72.8269363
  },
  {
    "id": "ChIJoXIauTLJ5zsR8zKqPY0FvUU",
    "name": "ARWAH RESTAURANT",
    "address": "Shop no.2&3 Business Point Opp. Subway, SV Rd, near DCB Bank, Andheri West, Mumbai",
    "lat": 19.1248916,
    "lng": 72.8466323
  },
  {
    "id": "ChIJW_-Brya25zsRljzSfgFFRNM",
    "name": "PizzaExpress",
    "address": "Ground Crystal Paradise Unit No. 1 Off Veera Desai Road, Village, Ambivali, Andheri West, Mumbai",
    "lat": 19.1322468,
    "lng": 72.834717
  },
  {
    "id": "ChIJzbqrd0PJ5zsRt1Ke5irm_ls",
    "name": "Hotel Shankari (restaurant & bar)",
    "address": "Juhu Versova Link Rd, Kapaswadi, Andheri West, Mumbai",
    "lat": 19.1194291,
    "lng": 72.8275941
  },
  {
    "id": "ChIJE5hqIzPI5zsRBgu7pcZwz2I",
    "name": "Regency Restaurant",
    "address": "Vasant Building, Professor NS Phadke Rd, opp. Poonam Plaza, Sai Wadi, Andheri East, Mumbai",
    "lat": 19.1136027,
    "lng": 72.8526687
  },
  {
    "id": "ChIJwR2qzErI5zsRS6q1-CdWwVQ",
    "name": "Gajalee",
    "address": "Kadamgiri Complex Hanuman Road, next to Icici Bank, Vile Parle East, Mumbai",
    "lat": 19.1038775,
    "lng": 72.85162249999999
  },
  {
    "id": "ChIJjXWGsvC25zsRV4JtCDVINXU",
    "name": "Taste Buds",
    "address": "Shop no.B/11, Kamla Nagar, Chincholi Bunder Rd, opp. Mohan Bar, Malad West, Mumbai",
    "lat": 19.1791525,
    "lng": 72.8374947
  },
  {
    "id": "ChIJY2DpPUTI5zsRgQb6soJ7DRU",
    "name": "Citrus - Fine Dining Restaurant",
    "address": "Sahar Airport Rd, Mariyyman Nagar, Greater Indra Nagar, Andheri East, Mumbai",
    "lat": 19.1092495,
    "lng": 72.87377359999999
  },
  {
    "id": "ChIJv5jDGU3I5zsRiltOrE39c3s",
    "name": "Spice It",
    "address": "Plot No F 77 Vile Parle East, Junction of Nehru Road, Mumbai",
    "lat": 19.0966897,
    "lng": 72.8534425
  },
  {
    "id": "ChIJw3AIblu25zsRnaMqiZ7VahM",
    "name": "Picasso Family Restaurant & Bar",
    "address": "Picasso Family Restaurant And Banquets, Bangur nagar Junction, New Link Rd, opp. D-Mart, Goregaon West, Mumbai",
    "lat": 19.1639594,
    "lng": 72.8349487
  },
  {
    "id": "ChIJhe3hYtHJ5zsRfriR-gTDc4U",
    "name": "Moti Mahal Restaurant",
    "address": "Gazdar Apartments, 208, Opposite Andheri Railway Station, Next to Time Chambers, SV Rd, Andheri West, Mumbai",
    "lat": 19.1203289,
    "lng": 72.8454514
  },
  {
    "id": "ChIJT1dK8Ty25zsRjfQ3_UJU9KU",
    "name": "Melting Pot",
    "address": "A-101, Crystal Plaza, Opposite Infinity Mall, KL Walawalkar Marg, Lokhandwala, Andheri West, Mumbai",
    "lat": 19.1406091,
    "lng": 72.8318733
  },
  {
    "id": "ChIJ6_zcXOjJ5zsRl_j347_uecM",
    "name": "Dakshinayan",
    "address": "Gandhigram Rd, opp. isckon temple, Jukarwadi, Juhu, Mumbai",
    "lat": 19.1128727,
    "lng": 72.8256133
  },
  {
    "id": "ChIJVVVFyerJ5zsR9nJFV-YQAtQ",
    "name": "Mahesh Lunch Home - Seafood Specialty Restaurant (Juhu)",
    "address": "Juhu Rd, Next to J.W.Marriott, Uditi Tarang Housing Colony, Juhu Tara, Juhu, Mumbai",
    "lat": 19.1036313,
    "lng": 72.8266507
  },
  {
    "id": "ChIJAYvwUDa25zsRaxdis6_DcTE",
    "name": "Goodluck Restaurant",
    "address": "Hp Petrol pump, SV Rd, near oshiwara, Oshiwara, Jogeshwari West, Mumbai",
    "lat": 19.148641,
    "lng": 72.84326999999999
  },
  {
    "id": "ChIJU597Zt235zsRe3jIozMekPk",
    "name": "Red Chillies Restaurant",
    "address": "Shop No. 6 , Gold Crown Building , J.P Road,Opp . Central Bank, near Kotak Mahindra Bank, Versova, Andheri ( W, Mumbai",
    "lat": 19.1293418,
    "lng": 72.826184
  },
  {
    "id": "ChIJkzfr0wm35zsRc3CvkGhtkuE",
    "name": "Indigo Deli Lokhandwala",
    "address": "Clifton Trishool, Off Link Road, Oshiwara Village Andheri, Lokhandwala Complex, Andheri West, Mumbai",
    "lat": 19.1366111,
    "lng": 72.8274888
  },
  {
    "id": "ChIJJQbVEUHI5zsR0UgnIhpoSAw",
    "name": "Glasshouse",
    "address": "Hyatt Regency, Sahar Airport Rd, Andheri East, Mumbai",
    "lat": 19.1035133,
    "lng": 72.87171099999999
  },
  {
    "id": "ChIJYeUN2By25zsRkr4-iwHNznE",
    "name": "The Tanjore Tiffin Room",
    "address": "Jewel Mahal Shopping Center 7 Bungalows, Ratan Kunj, Versova, Andheri West, Mumbai",
    "lat": 19.1284764,
    "lng": 72.817233
  },
  {
    "id": "ChIJn4GgwjjJ5zsRvv0SiWkPwkE",
    "name": "G. K. Restaurant",
    "address": "Besides Chartered Bus Office, Service Rd, opposite to Western Express Highway, Gundavali, Andheri East, Mumbai",
    "lat": 19.11931,
    "lng": 72.855379
  },
  {
    "id": "ChIJnf6VHLjJ5zsRgfqhL1XB9F0",
    "name": "Harish Lunch Home",
    "address": "115, SV Rd, Navpada, Irla, Vile Parle West, Mumbai",
    "lat": 19.108496,
    "lng": 72.8402842
  },
  {
    "id": "ChIJS9I24SnJ5zsR_NlBfYxwEI4",
    "name": "Idli & dosa factory",
    "address": "Chhatrapati Shivaji International Airport Terminal 1 Navpada, Area, Vile Parle, Mumbai",
    "lat": 19.091945,
    "lng": 72.85722059999999
  },
  {
    "id": "ChIJq6qqqhHI5zsRwxeM-gu9jQE",
    "name": "Harmeet Bar & Restaurant",
    "address": "Fish Market, Marol, Andheri - Kurla Rd, J B Nagar, Mumbai",
    "lat": 19.1097469,
    "lng": 72.870672
  },
  {
    "id": "ChIJI55TpRa35zsRcPnWMv_MoGA",
    "name": "Joey’s Pizza",
    "address": "Upvan Building, Shop No. 6 & 7, Metro Station, near D.N.Nagar, Madhuban Colony, D.N.Nagar, Andheri West, Mumbai",
    "lat": 19.1266348,
    "lng": 72.83010759999999
  },
  {
    "id": "ChIJnUck6pe35zsRqQsPA3SCgR8",
    "name": "On Toes - Restaurant Andheri",
    "address": "1ST FLOOR DE MALL NEW CHANDRA CHS, Veera Desai Rd, Andheri West, Mumbai",
    "lat": 19.1316005,
    "lng": 72.8356601
  },
  {
    "id": "ChIJu421PYS35zsRqvJ_qv_zH6k",
    "name": "HOD- Kitchen & Bar",
    "address": "Aspen Park 3/4, Nirlon Knowledge Park Backgate, Walbhat Rd, Goregaon, Mumbai",
    "lat": 19.1557898,
    "lng": 72.8516222
  },
  {
    "id": "ChIJLx4dEtm35zsRr7LygmT7Ia4",
    "name": "Blue's Kitchen By Loima",
    "address": "Phase D, Shastri Nagar, Andheri West, Mumbai",
    "lat": 19.1396867,
    "lng": 72.8315053
  },
  {
    "id": "ChIJ6Xas4rPJ5zsR8t_u7LhAS24",
    "name": "The Good Food Co.",
    "address": "Shop 3, Nand Prem Building, Nehru Road, Opposite Brijwasi Sweets, Vile Parle East, Mumbai",
    "lat": 19.0984696,
    "lng": 72.8457552
  },
  {
    "id": "ChIJpVFbDOjJ5zsRgAIwHsoWq88",
    "name": "Tanatan Juhu - Kitchen & Bar",
    "address": "462, A.B. Nair Rd, Juhu, opposite Novotel, Mumbai",
    "lat": 19.1092351,
    "lng": 72.825512
  },
  {
    "id": "ChIJMQn2Wha25zsRenHK_bMLaws",
    "name": "Yasin's Food Inn",
    "address": "Apna Ghar, Shiv Sadan, 27/C, 1st Cross Lane, Swami Samarth Nagar, Lokhandwala Complex, Andheri West, Mumbai",
    "lat": 19.1412763,
    "lng": 72.82538869999999
  },
  {
    "id": "ChIJr3YIEla25zsRKlUvjWrLWEs",
    "name": "Image Restaurant & Bar",
    "address": "SV Rd, next to MTNL, near Kamath Club, Mahesh Nagar, Goregaon West, Mumbai",
    "lat": 19.1726329,
    "lng": 72.8448934
  },
  {
    "id": "ChIJhdJ2lyK25zsRCRPsNvMajCI",
    "name": "Yalla Yalla",
    "address": "Yalla Yalla, Middle Eastern Street Food, Shop No-5, New Shantivan Bulding,, Oberoi Raviraj Complex-Andheri,West, Mumbai",
    "lat": 19.1364097,
    "lng": 72.8285508
  },
  {
    "id": "ChIJsShl0yLI5zsRW3UFqFPjB5k",
    "name": "Tunga Bar And Restaurant",
    "address": "MIDC Central Road, Andheri East, Mumbai",
    "lat": 19.1207589,
    "lng": 72.870138
  },
  {
    "id": "ChIJOb2BxjrI5zsREXq-R3_Xr_Y",
    "name": "Pickle & Pint Kitchen and Bar",
    "address": "1st floor, P 16, MIDC Central Rd, MIDC Industrial Area, Andheri East, Mumbai",
    "lat": 19.1209663,
    "lng": 72.8703585
  },
  {
    "id": "ChIJEe_RcLS35zsRtxkTnbidlNM",
    "name": "Banana Leaf Restaurant",
    "address": "Next to Bata Showroom, Near Inorbit Mall, New Link Rd, Malad West, Mumbai",
    "lat": 19.1763745,
    "lng": 72.8369171
  },
  {
    "id": "ChIJzcgz5VO25zsReYQlii2cay8",
    "name": "Raj Restaurant",
    "address": "SV Rd, opp. Patkar College, Ram Nagar, Goregaon, Mumbai",
    "lat": 19.1675109,
    "lng": 72.84536179999999
  },
  {
    "id": "ChIJM2bDf7bJ5zsRf78grc6k8q0",
    "name": "Aditi Fast Food & Restaurant",
    "address": "Hotel Columbus, 344, Nanda Patkar Rd, Navpada, Vile Parle East, Vile Parle, Mumbai",
    "lat": 19.0967026,
    "lng": 72.8502334
  },
  {
    "id": "ChIJyxbXpDW25zsRF38-OfBdb3Y",
    "name": "Sagar restaurant",
    "address": "RNA Plaza, Ram Mandir Rd, near Mahatma Jyotiba Phule Nagar, Mahatma Jyotiba Phule Nagar, Ram Mandir West, Mumbai",
    "lat": 19.1491352,
    "lng": 72.84775479999999
  },
  {
    "id": "ChIJZ2Go55XJ5zsRI6N7vs0BcxI",
    "name": "Shiv Sagar",
    "address": "Juhu Princess Building, Juhu Tara Road, Near Juhu Beach Juhu, Santacruz West, Mumbai",
    "lat": 19.0988203,
    "lng": 72.8278441
  },
  {
    "id": "ChIJL2VuS6i35zsR-GCPN92IJ68",
    "name": "Asia Kitchen by mainland China",
    "address": "Oberoi Mall, R4, 3rd Floor, Western Express Hwy, Goregaon, Mumbai",
    "lat": 19.1737073,
    "lng": 72.86054440000001
  },
  {
    "id": "ChIJ2Th9gL_J5zsRxGGGj3Knbug",
    "name": "Utsav Restaurant",
    "address": "V.M. Road, Near Sahakari Bhandar, Mithila, Juhu, Vile Parle West, Mumbai",
    "lat": 19.1036937,
    "lng": 72.8308029
  },
  {
    "id": "ChIJlyN7uN7R5zsRnDNSqIMd2ZI",
    "name": "It's Lucknowi",
    "address": "Shahid Bhagat Singh Road 301, Dhan Mansion, Adi Marzaban Path, VT (CST, Mumbai",
    "lat": 18.9359999,
    "lng": 72.8375689
  },
  {
    "id": "ChIJLf8zWebR5zsRkVxdjd6rbKI",
    "name": "Pizza By The Bay",
    "address": "Soona Mahal, 143, Marine Dr, Churchgate, Mumbai",
    "lat": 18.9331758,
    "lng": 72.8239238
  },
  {
    "id": "ChIJow6BN8HR5zsR4pHs8jdHOCE",
    "name": "The Table",
    "address": "Kalapesi Trust Building, Ground Floor, opposite Dhanraj Mahal, Apollo Bandar, Colaba, Mumbai",
    "lat": 18.9240952,
    "lng": 72.8330156
  },
  {
    "id": "ChIJd2_e043R5zsRid2h6Q81yY8",
    "name": "La Pizzeria Mumbai",
    "address": "Shop no. 3, Pheroze Building, Chhatrapati Shivaji Maharaj Marg, Near Gateway of India, Colaba, Mumbai",
    "lat": 18.9239068,
    "lng": 72.8333136
  },
  {
    "id": "ChIJc96Y77XJ5zsRvw2hZKx9F_Q",
    "name": "Khyber",
    "address": "145, Mahatma Gandhi Road, Kala Ghoda, Fort, Mumbai",
    "lat": 18.9283774,
    "lng": 72.8316863
  },
  {
    "id": "ChIJwx5E0ujR5zsR6fBmQR-GqPk",
    "name": "The Sassy Spoon Nariman Point",
    "address": "Express Towers, Plot A, Ground Floor, Ramnath Goenka Marg, next to HDFC Bank, Nariman Point, Mumbai",
    "lat": 18.9281748,
    "lng": 72.8222873
  },
  {
    "id": "ChIJN6XcLd7R5zsRQzDi3rIkZRk",
    "name": "Balwas Restaurant | Indian Food - Mughlai Food",
    "address": "Maker Bhavan 3, Shop No. 1, Ground Floor, 19, Vitthaldas Thackersey Marg, New Marine Lines, Marine Lines, Mumbai",
    "lat": 18.9394876,
    "lng": 72.8283881
  },
  {
    "id": "ChIJX3sl28DR5zsRElHA7exDGQ8",
    "name": "Shamiana",
    "address": "The Taj Mahal Palace Hotel, B K Boman Behram Marg, Apollo Bandar, Colaba, Mumbai",
    "lat": 18.9220554,
    "lng": 72.8330387
  },
  {
    "id": "ChIJVzbyPMHR5zsRigj3gnKgMsI",
    "name": "Bagdadi Restaurant",
    "address": "Tulloch Rd, behind Taj Inter Continental Hotel, Apollo Bandar, Colaba, Mumbai",
    "lat": 18.9228053,
    "lng": 72.83235599999999
  },
  {
    "id": "ChIJ83Blo-fR5zsRAJjYdpbE_Rc",
    "name": "Gaylord",
    "address": "Mayfair Building, Veer Nariman Road, Churchgate, Mumbai",
    "lat": 18.932879,
    "lng": 72.82610129999999
  },
  {
    "id": "ChIJwWM7atrR5zsRGN5Ba6nm0Cw",
    "name": "Harish family restaurant and bar",
    "address": "Adi Murzban Path, Ballard Estate, Fort, Mumbai",
    "lat": 18.9359423,
    "lng": 72.8383711
  },
  {
    "id": "ChIJYSa5ovnR5zsRj5ZNhPiNrxk",
    "name": "Plural Restaurant",
    "address": "Jai Hind Building, Nanik Motwani Marg, Kala Ghoda, Fort, Mumbai",
    "lat": 18.9291414,
    "lng": 72.8322771
  },
  {
    "id": "ChIJa4SSAezR5zsR09k0iLOD2qg",
    "name": "Status Restaurant",
    "address": "Regent chamber, 208, Jamnalal Bajaj Marg, Nariman Point, Mumbai",
    "lat": 18.9245328,
    "lng": 72.82150659999999
  },
  {
    "id": "ChIJ1zx4UwnO5zsRnsCzJTOfpNM",
    "name": "Govinda's",
    "address": "KM Munshi Rd, near Bharatiya Vidya Bhavan, Babulnath, Chowpatty, Malabar Hill, Mumbai",
    "lat": 18.9575166,
    "lng": 72.8099316
  },
  {
    "id": "ChIJm9vQxMDR5zsRjXQltcHnL_M",
    "name": "Golden Dragon",
    "address": "The Taj Mahal Palace Hotel, Apollo Bunder, Colaba, Colaba, Mumbai",
    "lat": 18.9220554,
    "lng": 72.8330387
  },
  {
    "id": "ChIJbQ7uvjy25zsRnDonWZwG_bA",
    "name": "Persian Restaurant",
    "address": "105, Wodehouse Rd, opp hotel president, Colaba, Mumbai",
    "lat": 18.914057,
    "lng": 72.822868
  },
  {
    "id": "ChIJtSu1lJPR5zsRlyJnkjZUD44",
    "name": "Thai Pavilion",
    "address": "President, Mumbai - IHCL SeleQtions 90, Cuffe Parade, Mumbai",
    "lat": 18.9144252,
    "lng": 72.8206768
  },
  {
    "id": "ChIJ__9z5JTR5zsRBhpVV_DDJmU",
    "name": "Bayroute Cuffe Parade",
    "address": "Minoo Manor Building, 7, Captain Prakash Pethe Marg, Badhwar Park, Apollo Bandar, Cuffe Parade, Mumbai",
    "lat": 18.9173021,
    "lng": 72.82445299999999
  },
  {
    "id": "ChIJs9B0FMPR5zsRUzOnTNrApMY",
    "name": "Burma Burma Restaurant & Tea Room",
    "address": "Kothari House, Allana Centre Lane, opposite Mumbai University, Kala Ghoda, Fort, Mumbai",
    "lat": 18.9295287,
    "lng": 72.8319996
  },
  {
    "id": "ChIJa66Z0ULO5zsRKdnohtGauAo",
    "name": "Star Of India Restaurant",
    "address": "705-6, Ganesh Hari Parundekar Road Jacob Circle, Ganesh Hari Parundekar Rd, Jacob Circle, Mumbai",
    "lat": 18.9767211,
    "lng": 72.8302818
  },
  {
    "id": "ChIJ7QJJJ-_R5zsRI4gFwe1G0Js",
    "name": "Ziya Restaurant",
    "address": "The Oberoi, Mumbai, Nariman Point, Mumbai",
    "lat": 18.9267987,
    "lng": 72.8203461
  },
  {
    "id": "ChIJA_qGIXPO5zsR58l3mZVUfXc",
    "name": "Amar Restaurant",
    "address": "274, Navroz Mansion, Nana Chowk, Javji Dadaji Marg, Kemps Corner, Tardeo, Mumbai",
    "lat": 18.9652584,
    "lng": 72.8127664
  },
  {
    "id": "ChIJq6qq6pPR5zsRxBjSwoUVMFQ",
    "name": "Trattoria Restaurant",
    "address": "President, Mumbai - IHCL SeleQtions 90, Cuffe Parade, Mumbai",
    "lat": 18.9144084,
    "lng": 72.8208424
  },
  {
    "id": "ChIJK_BkC-jR5zsRAjyjj9Rks8g",
    "name": "Samrat",
    "address": "Prem Court, Ground Floor, Jamshedji Tata Road, Churchgate, Mumbai",
    "lat": 18.9304126,
    "lng": 72.8263729
  },
  {
    "id": "ChIJSWqkIQ7O5zsRLZHOeXsM5J8",
    "name": "Canto Café And Bar",
    "address": "No. 534, BCMA Building, Sardar Vallabhbhai Patel Rd, Opera House, Mumbai",
    "lat": 18.9564631,
    "lng": 72.8140679
  },
  {
    "id": "ChIJYcyZX93R5zsRu4K6JSWKUcc",
    "name": "Umame",
    "address": "1st floor, Cambata Building 42 Maharshi Karve Road Opposite Oval Maidan, Churchgate, Mumbai",
    "lat": 18.931949,
    "lng": 72.827942
  },
  {
    "id": "ChIJ8Z4TzyTO5zsRiiX9vw0Mp04",
    "name": "Faham Restaurant",
    "address": "23, Sadguru Sadan, Ground Floor, Satkar Hotel Lane, Masjid Station, Street, Mumbai",
    "lat": 18.954059,
    "lng": 72.83579
  },
  {
    "id": "ChIJOz-hA-zR5zsR3rnGEuSmBew",
    "name": "Spesso Gourmet Kitchen",
    "address": "208, Ground Floor, Regent Chambers, Jamnalal Bajaj Marg, adjacent to Status hotel, Nariman Point, Mumbai",
    "lat": 18.924376,
    "lng": 72.8214517
  },
  {
    "id": "ChIJd01ENMHR5zsRAfJbHd_a1RM",
    "name": "Jia the Oriental Kitchen",
    "address": "Hotel Appolo, 22, MB Marg, behind Regal Cinema, Apollo Bandar, Colaba, Mumbai",
    "lat": 18.924155,
    "lng": 72.83241199999999
  },
  {
    "id": "ChIJdyt9tCHO5zsRscwpxZ1T3yM",
    "name": "Ashok Restaurant & Bar",
    "address": "Raghava Nivas, 29, Picket Rd, Tak Wadi, Lohar Chawl, Kalbadevi, Mumbai",
    "lat": 18.9456712,
    "lng": 72.8297159
  },
  {
    "id": "ChIJNRMpn9zR5zsRUpMf1Hoxi6k",
    "name": "Mahesh Lunch Home",
    "address": "Ground Floor, Life Insurance Building, 8-B, Cawasji Patel Rd, near Mumbai, Fort, Mumbai",
    "lat": 18.9339468,
    "lng": 72.83358539999999
  },
  {
    "id": "ChIJ2Vxh9YjR5zsRoRmKilLoHfk",
    "name": "Jai Hind Restaurant- Pure Veg (Kala Ghoda)",
    "address": "5, Surya Mahal, Burjorji, B Bharucha Rd, Kala Ghoda, Fort, Mumbai",
    "lat": 18.9287506,
    "lng": 72.83241559999999
  },
  {
    "id": "ChIJxSTjeRHO5zsRYf8VVRnmAoI",
    "name": "Lemon N Spice",
    "address": "422/424, Sardar Vallabhbhai patel road, prarthana samaj near Sir H. N. HOSPITAL, next to Milton, Mumbai",
    "lat": 18.9580542,
    "lng": 72.8196224
  },
  {
    "id": "ChIJs36LkdvR5zsRqZ1dNN_G34E",
    "name": "Jyoti Restaurant",
    "address": "34, Maruti Cross Ln, Borabazar Precinct, Ballard Estate, Fort, Mumbai",
    "lat": 18.9355546,
    "lng": 72.834667
  },
  {
    "id": "ChIJ7XjklgbR5zsRTg1qMZhvRiM",
    "name": "Americano",
    "address": "121/123 Radha Bhavan, Nagindas Master Rd, Kala Ghoda, Fort, Mumbai",
    "lat": 18.9289876,
    "lng": 72.8326067
  },
  {
    "id": "ChIJRVVV8A7O5zsRt2iDGSfD0Gk",
    "name": "Asian Street Kitchen",
    "address": "Sea Face, Gamdevi, Mumbai",
    "lat": 18.9549027,
    "lng": 72.8145554
  },
  {
    "id": "ChIJSYXs0uvR5zsRwOv3AozYrZs",
    "name": "Swati Snacks",
    "address": "Dalamal Tower, Free Press Journal Marg, Nariman Point, Mumbai",
    "lat": 18.924437,
    "lng": 72.824497
  },
  {
    "id": "ChIJbe7Eh1dm0zsRkF2gOmwRn9E",
    "name": "The Oriental Blossom",
    "address": "29, 1st Floor, Marine Plaza Hotel, Marine Dr, Mumbai",
    "lat": 18.9312724,
    "lng": 72.8231308
  },
  {
    "id": "ChIJ0R870nHO5zsRfHeWkGzDhsE",
    "name": "Oh! Calcutta",
    "address": "Hotel Rosewood, Ground floor, Tulsiwadi Path, opposite Mahindra Heights, Mumbai",
    "lat": 18.972523,
    "lng": 72.815496
  },
  {
    "id": "ChIJr2_eFUDO5zsRF5eXqf59kWA",
    "name": "Sarvi Restaurant",
    "address": "184 Police Station, 192, Dimtimkar Rd, opp. Nagpada, Dalal Estate, Mumbai",
    "lat": 18.9668207,
    "lng": 72.8291165
  },
  {
    "id": "ChIJaW5PBMPR5zsRkCeRSTiYTp0",
    "name": "Fountain Sizzlers",
    "address": "57, Mahatma Gandhi Road, Opposite HSBC, Kala Ghoda, Fort, Mumbai",
    "lat": 18.9312574,
    "lng": 72.83161989999999
  },
  {
    "id": "ChIJE8R9PncWrjsR8gPcSe6OCUY",
    "name": "Symphony restaurant",
    "address": "72, Sheredon House, August Kranti Marg, Mumbai",
    "lat": 18.9633621,
    "lng": 72.8104396
  },
  {
    "id": "ChIJ_d3XRzjO5zsRFVF5XE1sVy0",
    "name": "Afzal Restaurant",
    "address": "9/A, Shop 36/37, Tulsiwadi, Shivdas Chapsi Marg, Building, Mazgaon, opposite Sai Niketan, Mumbai",
    "lat": 18.969557,
    "lng": 72.84091099999999
  },
  {
    "id": "ChIJc5wtg_vN5zsRhkr35T3Q16I",
    "name": "Dakshinayan South Indian Restaurant",
    "address": "183a, Walkeshwar Rd, Raj Bhavan, Malabar Hill, Mumbai",
    "lat": 18.9477778,
    "lng": 72.7975
  },
  {
    "id": "ChIJ9_15DBHO5zsRsVVIlUcGfd0",
    "name": "Nityanand Fast Food",
    "address": "G07, Patil Heights, 273, Vithalbhai Patel Rd, Mumbai",
    "lat": 18.9572144,
    "lng": 72.8195088
  },
  {
    "id": "ChIJna-Vo8PR5zsR-DdqtlUcYac",
    "name": "Punjab Grill - Kala Ghoda",
    "address": "Shop 38, Building, 1, K Dubash Marg, Kala Ghoda, Fort, Mumbai",
    "lat": 18.9279701,
    "lng": 72.8322286
  },
  {
    "id": "ChIJ1Rz1UcPR5zsR0aecyLZLyvs",
    "name": "Poornima",
    "address": "Raja Bahadur Compound Building Number 5, Near Bombay House, Tamarind Lane, near Mumbai Samachar Marg, Fort, Mumbai",
    "lat": 18.9310646,
    "lng": 72.8331541
  },
  {
    "id": "ChIJ3_cobN_N5zsR0aFWYReEE1w",
    "name": "Sun Restaurant",
    "address": "Beach View, No. 93, Ground Floor, Bhulabhai Desai Marg, opp. Tata Garden, Cumballa Hill, Mumbai",
    "lat": 18.9665325,
    "lng": 72.8036958
  },
  {
    "id": "ChIJxY2uoefR5zsRXJcn_xo_D0c",
    "name": "Mockingbird Cafe Bar",
    "address": "80, Veer Nariman Road, Churchgate, Mumbai",
    "lat": 18.9335015,
    "lng": 72.82627500000001
  },
  {
    "id": "ChIJz3PX6yLO5zsRij_kOazvv30",
    "name": "Sunlight Restaurant & Bar",
    "address": "537, Ravindra Apartments, Kalbadevi Road, Dhobi Talao, Lohar Chawl, Kalbadevi, Mumbai",
    "lat": 18.944673,
    "lng": 72.82938709999999
  },
  {
    "id": "ChIJL5HKSBjR5zsRptSVwXw3ZuI",
    "name": "Nara Thai, Colaba",
    "address": "Amar Chand Mansion, Madame Cama Rd, Dr Ambedkar Statue Chowk Area, Colaba, Mumbai",
    "lat": 18.9253919,
    "lng": 72.8303614
  },
  {
    "id": "ChIJJe4VAyDO5zsR4tUYW1pcReY",
    "name": "Shree Jyoti Family Restaurant And Bar",
    "address": "1st Dhobi Talao, Marine Line, Marine Lines Flyover, Kalbadevi, Mumbai",
    "lat": 18.9430939,
    "lng": 72.8281707
  },
  {
    "id": "ChIJr_rnPiDO5zsRpvW0LmpvsJE",
    "name": "Mao Family Restaurant",
    "address": "534, 536, Kalbadevi Road, near Metro Big Cinemas, Marine Lines East, Dhobi Talao, Lohar Chawl, Kalbadevi, Mumbai",
    "lat": 18.944454,
    "lng": 72.82913500000001
  },
  {
    "id": "ChIJQQ3rASDO5zsRu1dVCgsNxiU",
    "name": "FELICIA RESTAURANT & BAR",
    "address": "Anandilal Podar Marg, Marine Line, Dhobi Talao, New Marine Lines, Kalbadevi, Mumbai",
    "lat": 18.9428178,
    "lng": 72.827947
  },
  {
    "id": "ChIJc38j4h_O5zsRjrx7CxFALCk",
    "name": "Marine Restaurant",
    "address": "Shop No. 39, Marine Chambers, 17, 1st Marine Street, Dhobi Talao, Mumbai",
    "lat": 18.9424642,
    "lng": 72.8268819
  },
  {
    "id": "ChIJuei81l3R5zsRhq2UCzKgMyc",
    "name": "Delhi Darbar Express - Nariman Point",
    "address": "5, Jamnalal Bajaj Marg, Opp Status Restaurant, Nariman Point, Mumbai",
    "lat": 18.9242079,
    "lng": 72.82260649999999
  },
  {
    "id": "ChIJlQyFWQ7O5zsRhj2od_rB1kU",
    "name": "Sukh Sagar",
    "address": "Sukh Sagar Building, Gamdevi, Sardar Vallabhbhai Patel Rd, Chowpatty, Girgaon, Mumbai",
    "lat": 18.9562323,
    "lng": 72.81345069999999
  },
  {
    "id": "ChIJv1jz-3LO5zsRpFXz9jp-Qm0",
    "name": "Swati Snacks",
    "address": "Karai Estate, 248, Tardeo Rd, Opp Bhatia Hospital, Tardeo, Mumbai",
    "lat": 18.9667068,
    "lng": 72.8134319
  },
  {
    "id": "ChIJjaSxdcDR5zsRJppdr4jC7oA",
    "name": "Kuai Kitchen",
    "address": "16/A Cusrow Baug Colaba Causeway, Shahid Bhagat Singh Rd, Colaba, Mumbai",
    "lat": 18.9196443,
    "lng": 72.8295553
  },
  {
    "id": "ChIJf0yRE8HR5zsRnhSwcIt-fIs",
    "name": "Sizzling China [Colaba]",
    "address": "Meherzin Building, Colaba Causeway, near Sasoon Dock, Cuffe Parade, Mumbai",
    "lat": 18.9132656,
    "lng": 72.8227037
  }
]